[{"location":{"categories":[53],"extended_address":"","facebook_url":"https://www.facebook.com/OrganicAvenue","foodler_url":"","hours":"M-F: 7am-9pm\r\nSat & Sun: 8am-9pm\r\n","id":5854,"latitude":40.730256,"locality":"New York","longitude":-73.989554,"menu_url":"","merchant_id":4824,"merchant_description_html":"Organic Avenue is the leading provider of organic cold pressed juices, food cleansing programs, snacks, superfoods, truly natural beauty products, healthy lifestyle education and community building events. The company helps people learn how to transition and maintain a healthy lifestyle that is pleasurable and sustainable, while also friendly to people, animals and the environment. ","merchant_name":"Organic Avenue ","merchant_tip_preference":"unwanted","name":"9th & Third","newsletter_url":"","opentable_url":"","phone":"(212) 358-0500","postal_code":"10003","region":"NY","street_address":"30 Third Avenue","twitter_url":"http://www.twitter.com/@organicavenue","updated_at":"2014-06-05T13:41:48-04:00","yelp_url":"http://www.yelp.com/biz/organic-avenue-new-york","shown":true}},{"location":{"categories":[53],"extended_address":"","facebook_url":"https://www.facebook.com/OrganicAvenue","foodler_url":"","hours":"M-Th: 8am-8pm \r\nFri & Sat: 8am-7pm\r\nSun: 9am-7pm","id":5855,"latitude":40.782917,"locality":"Roslyn Heights","longitude":-73.653787,"menu_url":"","merchant_id":4824,"merchant_description_html":"Organic Avenue is the leading provider of organic cold pressed juices, food cleansing programs, snacks, superfoods, truly natural beauty products, healthy lifestyle education and community building events. The company helps people learn how to transition and maintain a healthy lifestyle that is pleasurable and sustainable, while also friendly to people, animals and the environment. ","merchant_name":"Organic Avenue ","merchant_tip_preference":"unwanted","name":"Roslyn","newsletter_url":"","opentable_url":"","phone":"(212) 358-0500","postal_code":"11577","region":"NY","street_address":"250 South Service Road ","twitter_url":"http://www.twitter.com/@organicavenue","updated_at":"2014-06-05T13:41:48-04:00","yelp_url":"http://www.yelp.com/biz/organic-avenue-new-york","shown":true}},{"location":{"categories":[53],"extended_address":"","facebook_url":"https://www.facebook.com/OrganicAvenue","foodler_url":"","hours":"M-F: 7am-9pm \r\nSat-Sun: 8am-9pm","id":5856,"latitude":40.744021,"locality":"New York","longitude":-73.999215,"menu_url":"","merchant_id":4824,"merchant_description_html":"Organic Avenue is the leading provider of organic cold pressed juices, food cleansing programs, snacks, superfoods, truly natural beauty products, healthy lifestyle education and community building events. The company helps people learn how to transition and maintain a healthy lifestyle that is pleasurable and sustainable, while also friendly to people, animals and the environment. ","merchant_name":"Organic Avenue ","merchant_tip_preference":"unwanted","name":"21st & Eighth","newsletter_url":"","opentable_url":"","phone":"(212) 358-0500","postal_code":"10011","region":"NY","street_address":"216 8th Ave","twitter_url":"http://www.twitter.com/@organicavenue","updated_at":"2014-06-05T13:41:48-04:00","yelp_url":"http://www.yelp.com/biz/organic-avenue-new-york","shown":true}},{"location":{"categories":[53],"extended_address":"","facebook_url":"https://www.facebook.com/OrganicAvenue","foodler_url":"","hours":"Daily: 8am-8pm","id":5859,"latitude":40.72752,"locality":"New York","longitude":-74.001875,"menu_url":"","merchant_id":4824,"merchant_description_html":"Organic Avenue is the leading provider of organic cold pressed juices, food cleansing programs, snacks, superfoods, truly natural beauty products, healthy lifestyle education and community building events. The company helps people learn how to transition and maintain a healthy lifestyle that is pleasurable and sustainable, while also friendly to people, animals and the environment. ","merchant_name":"Organic Avenue ","merchant_tip_preference":"unwanted","name":"Sullivan  & Houston","newsletter_url":"","opentable_url":"","phone":"(212) 358-0500","postal_code":"10012","region":"NY","street_address":"156 Sullivan Street","twitter_url":"http://www.twitter.com/@organicavenue","updated_at":"2014-06-05T13:41:48-04:00","yelp_url":"http://www.yelp.com/biz/organic-avenue-new-york","shown":true}},{"location":{"categories":[53],"extended_address":"","facebook_url":"https://www.facebook.com/OrganicAvenue","foodler_url":"","hours":"M-F: 7am-8pm \r\nSat-Sun: 8am-8pm","id":5860,"latitude":40.771271,"locality":"New York","longitude":-73.961546,"menu_url":"","merchant_id":4824,"merchant_description_html":"Organic Avenue is the leading provider of organic cold pressed juices, food cleansing programs, snacks, superfoods, truly natural beauty products, healthy lifestyle education and community building events. The company helps people learn how to transition and maintain a healthy lifestyle that is pleasurable and sustainable, while also friendly to people, animals and the environment. ","merchant_name":"Organic Avenue ","merchant_tip_preference":"unwanted","name":"73rd & Lexington","newsletter_url":"","opentable_url":"","phone":"(212) 358-0500","postal_code":"10021","region":"NY","street_address":"1021 Lexington Avenue","twitter_url":"http://www.twitter.com/@organicavenue","updated_at":"2014-06-05T13:41:48-04:00","yelp_url":"http://www.yelp.com/biz/organic-avenue-new-york","shown":true}},{"location":{"categories":[53],"extended_address":"","facebook_url":"https://www.facebook.com/OrganicAvenue","foodler_url":"","hours":"M-Th: 7am-9pm\r\nFri: 7am-8pm\r\nSat-Sun: 8am-6pm","id":5861,"latitude":40.759519,"locality":"New York","longitude":-73.970149,"menu_url":"","merchant_id":4824,"merchant_description_html":"Organic Avenue is the leading provider of organic cold pressed juices, food cleansing programs, snacks, superfoods, truly natural beauty products, healthy lifestyle education and community building events. The company helps people learn how to transition and maintain a healthy lifestyle that is pleasurable and sustainable, while also friendly to people, animals and the environment. ","merchant_name":"Organic Avenue ","merchant_tip_preference":"unwanted","name":"54th & Lexington","newsletter_url":"","opentable_url":"","phone":"(212) 358-0500","postal_code":"10022","region":"NY","street_address":"649 Lexington Avenue","twitter_url":"http://www.twitter.com/@organicavenue","updated_at":"2014-06-05T13:41:48-04:00","yelp_url":"http://www.yelp.com/biz/organic-avenue-new-york","shown":true}},{"location":{"categories":[53],"extended_address":"","facebook_url":"https://www.facebook.com/OrganicAvenue","foodler_url":"","hours":"M-F: 7am-9pm\r\nSat-Sun: 8am-8pm","id":5862,"latitude":40.78518,"locality":"New York","longitude":-73.976468,"menu_url":"","merchant_id":4824,"merchant_description_html":"Organic Avenue is the leading provider of organic cold pressed juices, food cleansing programs, snacks, superfoods, truly natural beauty products, healthy lifestyle education and community building events. The company helps people learn how to transition and maintain a healthy lifestyle that is pleasurable and sustainable, while also friendly to people, animals and the environment. ","merchant_name":"Organic Avenue ","merchant_tip_preference":"unwanted","name":"82nd & Amsterdam","newsletter_url":"","opentable_url":"","phone":"(212) 358-0500","postal_code":"10024","region":"NY","street_address":"461 Amsterdam Avenue","twitter_url":"http://www.twitter.com/@organicavenue","updated_at":"2014-06-05T13:41:48-04:00","yelp_url":"http://www.yelp.com/biz/organic-avenue-new-york","shown":true}},{"location":{"categories":[53],"extended_address":"","facebook_url":"https://www.facebook.com/OrganicAvenue","foodler_url":"","hours":"Daily: 8am-9pm","id":5864,"latitude":40.733598,"locality":"New York","longitude":-74.00636,"menu_url":"","merchant_id":4824,"merchant_description_html":"Organic Avenue is the leading provider of organic cold pressed juices, food cleansing programs, snacks, superfoods, truly natural beauty products, healthy lifestyle education and community building events. The company helps people learn how to transition and maintain a healthy lifestyle that is pleasurable and sustainable, while also friendly to people, animals and the environment. ","merchant_name":"Organic Avenue ","merchant_tip_preference":"unwanted","name":"10th & Hudson","newsletter_url":"","opentable_url":"","phone":"(212) 358-0500","postal_code":"10014","region":"NY","street_address":"515 Hudson Street","twitter_url":"http://www.twitter.com/@organicavenue","updated_at":"2014-06-05T13:41:48-04:00","yelp_url":"http://www.yelp.com/biz/organic-avenue-new-york","shown":true}},{"location":{"categories":[53],"extended_address":"","facebook_url":"https://www.facebook.com/OrganicAvenue","foodler_url":"","hours":"M-F: 7am-9pm\r\nSat-Sun: 8am-9pm","id":6596,"latitude":40.778347,"locality":"New York","longitude":-73.953602,"menu_url":"","merchant_id":4824,"merchant_description_html":"Organic Avenue is the leading provider of organic cold pressed juices, food cleansing programs, snacks, superfoods, truly natural beauty products, healthy lifestyle education and community building events. The company helps people learn how to transition and maintain a healthy lifestyle that is pleasurable and sustainable, while also friendly to people, animals and the environment. ","merchant_name":"Organic Avenue ","merchant_tip_preference":"unwanted","name":"86th & Third","newsletter_url":"","opentable_url":"","phone":"(212) 358-0500","postal_code":"10028","region":"NY","street_address":"206 East 86th Street","twitter_url":"http://www.twitter.com/@organicavenue","updated_at":"2014-06-05T13:41:48-04:00","yelp_url":"http://www.yelp.com/biz/organic-avenue-new-york","shown":true}},{"location":{"categories":[53],"extended_address":"","facebook_url":"https://www.facebook.com/OrganicAvenue","foodler_url":"","hours":"M-F: 7am-9pm\r\nSat-Sun: 8am-9pm","id":7554,"latitude":40.726223,"locality":"New York","longitude":-73.995392,"menu_url":"","merchant_id":4824,"merchant_description_html":"Organic Avenue is the leading provider of organic cold pressed juices, food cleansing programs, snacks, superfoods, truly natural beauty products, healthy lifestyle education and community building events. The company helps people learn how to transition and maintain a healthy lifestyle that is pleasurable and sustainable, while also friendly to people, animals and the environment. ","merchant_name":"Organic Avenue ","merchant_tip_preference":"unwanted","name":"Bleecker","newsletter_url":"","opentable_url":"","phone":"(212) 358-0500","postal_code":"10012","region":"NY","street_address":"62 Bleecker Street","twitter_url":"http://www.twitter.com/@organicavenue","updated_at":"2014-06-05T13:41:48-04:00","yelp_url":"http://www.yelp.com/biz/organic-avenue-new-york","shown":true}},{"location":{"categories":[53],"extended_address":"","facebook_url":"https://www.facebook.com/OrganicAvenue","foodler_url":"","hours":"M-F: 7am-9pm\r\nSat & Sun: 8am-9pm","id":7752,"latitude":40.738596,"locality":"New York","longitude":-73.987937,"menu_url":"","merchant_id":4824,"merchant_description_html":"Organic Avenue is the leading provider of organic cold pressed juices, food cleansing programs, snacks, superfoods, truly natural beauty products, healthy lifestyle education and community building events. The company helps people learn how to transition and maintain a healthy lifestyle that is pleasurable and sustainable, while also friendly to people, animals and the environment. ","merchant_name":"Organic Avenue ","merchant_tip_preference":"unwanted","name":"Park Avenue South","newsletter_url":"","opentable_url":"","phone":"(212) 358-0500","postal_code":"10010","region":"NY","street_address":"254 Park Ave S","twitter_url":"http://www.twitter.com/@organicavenue","updated_at":"2014-06-05T13:41:48-04:00","yelp_url":"http://www.yelp.com/biz/organic-avenue-new-york","shown":true}},{"location":{"categories":[53],"extended_address":"","facebook_url":"https://www.facebook.com/OrganicAvenue","foodler_url":"","hours":"M-F: 7am-9pm\r\nSat & Sun: 8am-9pm","id":7799,"latitude":40.753776,"locality":"New York","longitude":-73.985365,"menu_url":"","merchant_id":4824,"merchant_description_html":"Organic Avenue is the leading provider of organic cold pressed juices, food cleansing programs, snacks, superfoods, truly natural beauty products, healthy lifestyle education and community building events. The company helps people learn how to transition and maintain a healthy lifestyle that is pleasurable and sustainable, while also friendly to people, animals and the environment. ","merchant_name":"Organic Avenue ","merchant_tip_preference":"unwanted","name":"Bryant Park","newsletter_url":"","opentable_url":"","phone":"(212) 358-0500","postal_code":"10018","region":"NY","street_address":"5 Bryant Park","twitter_url":"http://www.twitter.com/@organicavenue","updated_at":"2014-06-05T13:41:48-04:00","yelp_url":"http://www.yelp.com/biz/organic-avenue-new-york","shown":true}}]